<?xml version='1.0' encoding='utf-8'?>
<kml xmlns="http://www.opengis.net/kml/2.2">
  <Document>
    <name>Ruas - José de Carvalho Peixoto</name>
    <Style id="style_ma_1">
      <IconStyle>
        <color>ff852c31</color>
        <scale>1.2</scale>
        <Icon>
          <href>http://maps.google.com/mapfiles/kml/shapes/placemark_circle.png</href>
        </Icon>
      </IconStyle>
      <LabelStyle>
        <color>ff852c31</color>
        <scale>0.8</scale>
      </LabelStyle>
    </Style>
    <Style id="style_ma_2">
      <IconStyle>
        <color>ffa3282e</color>
        <scale>1.2</scale>
        <Icon>
          <href>http://maps.google.com/mapfiles/kml/shapes/placemark_circle.png</href>
        </Icon>
      </IconStyle>
      <LabelStyle>
        <color>ffa3282e</color>
        <scale>0.8</scale>
      </LabelStyle>
    </Style>
    <Style id="style_ma_3">
      <IconStyle>
        <color>ffc3222a</color>
        <scale>1.2</scale>
        <Icon>
          <href>http://maps.google.com/mapfiles/kml/shapes/placemark_circle.png</href>
        </Icon>
      </IconStyle>
      <LabelStyle>
        <color>ffc3222a</color>
        <scale>0.8</scale>
      </LabelStyle>
    </Style>
    <Style id="style_ma_4">
      <IconStyle>
        <color>ffe51923</color>
        <scale>1.2</scale>
        <Icon>
          <href>http://maps.google.com/mapfiles/kml/shapes/placemark_circle.png</href>
        </Icon>
      </IconStyle>
      <LabelStyle>
        <color>ffe51923</color>
        <scale>0.8</scale>
      </LabelStyle>
    </Style>
    <Style id="style_ma_5">
      <IconStyle>
        <color>fff3242f</color>
        <scale>1.2</scale>
        <Icon>
          <href>http://maps.google.com/mapfiles/kml/shapes/placemark_circle.png</href>
        </Icon>
      </IconStyle>
      <LabelStyle>
        <color>fff3242f</color>
        <scale>0.8</scale>
      </LabelStyle>
    </Style>
    <Style id="style_ma_01_e_02">
      <IconStyle>
        <color>ffcc656b</color>
        <scale>1.2</scale>
        <Icon>
          <href>http://maps.google.com/mapfiles/kml/shapes/placemark_circle.png</href>
        </Icon>
      </IconStyle>
      <LabelStyle>
        <color>ffcc656b</color>
        <scale>0.8</scale>
      </LabelStyle>
    </Style>
    <Folder>
      <name>Microárea 1</name>
      <Placemark>
        <name>Rua 01</name>
        <description>
UBS: José de Carvalho Peixoto
Microárea: 1
Endereço: Rua 01, Mangabeira, Nossa Senhora do Socorro - SE
Método: google_api
</description>
        <styleUrl>#style_ma_1</styleUrl>
        <Point>
          <coordinates>-37.0750005,-10.8532956,0</coordinates>
        </Point>
      </Placemark>
      <Placemark>
        <name>Rua 03</name>
        <description>
UBS: José de Carvalho Peixoto
Microárea: 1
Endereço: Rua 03, Mangabeira, Nossa Senhora do Socorro - SE
Método: google_api
</description>
        <styleUrl>#style_ma_1</styleUrl>
        <Point>
          <coordinates>-37.12755629999999,-10.8940583,0</coordinates>
        </Point>
      </Placemark>
      <Placemark>
        <name>Rua 05</name>
        <description>
UBS: José de Carvalho Peixoto
Microárea: 1
Endereço: Rua 05, Mangabeira, Nossa Senhora do Socorro - SE
Método: google_api
</description>
        <styleUrl>#style_ma_1</styleUrl>
        <Point>
          <coordinates>-37.07368719999999,-10.8584485,0</coordinates>
        </Point>
      </Placemark>
      <Placemark>
        <name>Rua 07</name>
        <description>
UBS: José de Carvalho Peixoto
Microárea: 1
Endereço: Rua 07, Mangabeira, Nossa Senhora do Socorro - SE
Método: google_api
</description>
        <styleUrl>#style_ma_1</styleUrl>
        <Point>
          <coordinates>-37.0916369,-10.8586131,0</coordinates>
        </Point>
      </Placemark>
      <Placemark>
        <name>Rua 09</name>
        <description>
UBS: José de Carvalho Peixoto
Microárea: 1
Endereço: Rua 09, Mangabeira, Nossa Senhora do Socorro - SE
Método: google_api
</description>
        <styleUrl>#style_ma_1</styleUrl>
        <Point>
          <coordinates>-37.0521895,-10.8494823,0</coordinates>
        </Point>
      </Placemark>
    </Folder>
    <Folder>
      <name>Microárea 2</name>
      <Placemark>
        <name>Rua 02</name>
        <description>
UBS: José de Carvalho Peixoto
Microárea: 2
Endereço: Rua 02, Mangabeira, Nossa Senhora do Socorro - SE
Método: google_api
</description>
        <styleUrl>#style_ma_2</styleUrl>
        <Point>
          <coordinates>-37.1001707,-10.9004124,0</coordinates>
        </Point>
      </Placemark>
      <Placemark>
        <name>Rua 04</name>
        <description>
UBS: José de Carvalho Peixoto
Microárea: 2
Endereço: Rua 04, Mangabeira, Nossa Senhora do Socorro - SE
Método: google_api
</description>
        <styleUrl>#style_ma_2</styleUrl>
        <Point>
          <coordinates>-37.0923628,-10.8570783,0</coordinates>
        </Point>
      </Placemark>
      <Placemark>
        <name>Rua 06</name>
        <description>
UBS: José de Carvalho Peixoto
Microárea: 2
Endereço: Rua 06, Mangabeira, Nossa Senhora do Socorro - SE
Método: google_api
</description>
        <styleUrl>#style_ma_2</styleUrl>
        <Point>
          <coordinates>-37.102455,-10.8979254,0</coordinates>
        </Point>
      </Placemark>
      <Placemark>
        <name>Rua 08</name>
        <description>
UBS: José de Carvalho Peixoto
Microárea: 2
Endereço: Rua 08, Mangabeira, Nossa Senhora do Socorro - SE
Método: google_api
</description>
        <styleUrl>#style_ma_2</styleUrl>
        <Point>
          <coordinates>-37.1278298,-10.8935105,0</coordinates>
        </Point>
      </Placemark>
      <Placemark>
        <name>Rua 10</name>
        <description>
UBS: José de Carvalho Peixoto
Microárea: 2
Endereço: Rua 10, Mangabeira, Nossa Senhora do Socorro - SE
Método: google_api
</description>
        <styleUrl>#style_ma_2</styleUrl>
        <Point>
          <coordinates>-37.0782217,-10.8545449,0</coordinates>
        </Point>
      </Placemark>
      <Placemark>
        <name>Rua Flor de Lis</name>
        <description>
UBS: José de Carvalho Peixoto
Microárea: 2
Endereço: Rua Flor de Lis, Mangabeira, Nossa Senhora do Socorro - SE
Método: google_api
</description>
        <styleUrl>#style_ma_2</styleUrl>
        <Point>
          <coordinates>-37.076827,-10.8559636,0</coordinates>
        </Point>
      </Placemark>
    </Folder>
    <Folder>
      <name>Microárea 3</name>
      <Placemark>
        <name>Rua 11</name>
        <description>
UBS: José de Carvalho Peixoto
Microárea: 3
Endereço: Rua 11, Mangabeira, Nossa Senhora do Socorro - SE
Método: google_api
</description>
        <styleUrl>#style_ma_3</styleUrl>
        <Point>
          <coordinates>-37.0845003,-10.8560861,0</coordinates>
        </Point>
      </Placemark>
      <Placemark>
        <name>Rua 12</name>
        <description>
UBS: José de Carvalho Peixoto
Microárea: 3
Endereço: Rua 12, Mangabeira, Nossa Senhora do Socorro - SE
Método: google_api
</description>
        <styleUrl>#style_ma_3</styleUrl>
        <Point>
          <coordinates>-37.0757577,-10.8710385,0</coordinates>
        </Point>
      </Placemark>
      <Placemark>
        <name>Rua 14</name>
        <description>
UBS: José de Carvalho Peixoto
Microárea: 3
Endereço: Rua 14, Mangabeira, Nossa Senhora do Socorro - SE
Método: google_api
</description>
        <styleUrl>#style_ma_3</styleUrl>
        <Point>
          <coordinates>-37.0769102,-10.8706436,0</coordinates>
        </Point>
      </Placemark>
      <Placemark>
        <name>Rua Flor de Laranjeiras</name>
        <description>
UBS: José de Carvalho Peixoto
Microárea: 3
Endereço: Rua Flor de Laranjeiras, Mangabeira, Nossa Senhora do Socorro - SE
Método: google_api
</description>
        <styleUrl>#style_ma_3</styleUrl>
        <Point>
          <coordinates>-37.0734048,-10.8566058,0</coordinates>
        </Point>
      </Placemark>
      <Placemark>
        <name>Rua Copo de Leite</name>
        <description>
UBS: José de Carvalho Peixoto
Microárea: 3
Endereço: Rua Copo de Leite, Mangabeira, Nossa Senhora do Socorro - SE
Método: google_api
</description>
        <styleUrl>#style_ma_3</styleUrl>
        <Point>
          <coordinates>-37.075044,-10.8596626,0</coordinates>
        </Point>
      </Placemark>
      <Placemark>
        <name>Rua Girassol</name>
        <description>
UBS: José de Carvalho Peixoto
Microárea: 3
Endereço: Rua Girassol, Mangabeira, Nossa Senhora do Socorro - SE
Método: google_api
</description>
        <styleUrl>#style_ma_3</styleUrl>
        <Point>
          <coordinates>-37.0756513,-10.859195,0</coordinates>
        </Point>
      </Placemark>
      <Placemark>
        <name>Rua Jacinto</name>
        <description>
UBS: José de Carvalho Peixoto
Microárea: 3
Endereço: Rua Jacinto, Mangabeira, Nossa Senhora do Socorro - SE
Método: google_api
</description>
        <styleUrl>#style_ma_3</styleUrl>
        <Point>
          <coordinates>-37.0761542,-10.8582837,0</coordinates>
        </Point>
      </Placemark>
      <Placemark>
        <name>Rua Violeta</name>
        <description>
UBS: José de Carvalho Peixoto
Microárea: 3
Endereço: Rua Violeta, Mangabeira, Nossa Senhora do Socorro - SE
Método: google_api
</description>
        <styleUrl>#style_ma_3</styleUrl>
        <Point>
          <coordinates>-37.0761862,-10.8578027,0</coordinates>
        </Point>
      </Placemark>
      <Placemark>
        <name>Rua Vitória Régia</name>
        <description>
UBS: José de Carvalho Peixoto
Microárea: 3
Endereço: Rua Vitória Régia, Mangabeira, Nossa Senhora do Socorro - SE
Método: google_api
</description>
        <styleUrl>#style_ma_3</styleUrl>
        <Point>
          <coordinates>-37.0750591,-10.8587367,0</coordinates>
        </Point>
      </Placemark>
    </Folder>
    <Folder>
      <name>Microárea 4</name>
      <Placemark>
        <name>Rua Margarida</name>
        <description>
UBS: José de Carvalho Peixoto
Microárea: 4
Endereço: Rua Margarida, Mangabeira, Nossa Senhora do Socorro - SE
Método: google_api
</description>
        <styleUrl>#style_ma_4</styleUrl>
        <Point>
          <coordinates>-37.0762009,-10.8573648,0</coordinates>
        </Point>
      </Placemark>
      <Placemark>
        <name>Rua Jasmim</name>
        <description>
UBS: José de Carvalho Peixoto
Microárea: 4
Endereço: Rua Jasmim, Mangabeira, Nossa Senhora do Socorro - SE
Método: google_api
</description>
        <styleUrl>#style_ma_4</styleUrl>
        <Point>
          <coordinates>-37.07617,-10.8568864,0</coordinates>
        </Point>
      </Placemark>
      <Placemark>
        <name>Rua Flor de Maio</name>
        <description>
UBS: José de Carvalho Peixoto
Microárea: 4
Endereço: Rua Flor de Maio, Mangabeira, Nossa Senhora do Socorro - SE
Método: google_api
</description>
        <styleUrl>#style_ma_4</styleUrl>
        <Point>
          <coordinates>-37.0752187,-10.8564231,0</coordinates>
        </Point>
      </Placemark>
      <Placemark>
        <name>Rua Cravo Branco</name>
        <description>
UBS: José de Carvalho Peixoto
Microárea: 4
Endereço: Rua Cravo Branco, Mangabeira, Nossa Senhora do Socorro - SE
Método: google_api
</description>
        <styleUrl>#style_ma_4</styleUrl>
        <Point>
          <coordinates>-37.0728983,-10.8573836,0</coordinates>
        </Point>
      </Placemark>
      <Placemark>
        <name>Rua Primavera</name>
        <description>
UBS: José de Carvalho Peixoto
Microárea: 4
Endereço: Rua Primavera, Mangabeira, Nossa Senhora do Socorro - SE
Método: google_api
</description>
        <styleUrl>#style_ma_4</styleUrl>
        <Point>
          <coordinates>-37.075054,-10.8564406,0</coordinates>
        </Point>
      </Placemark>
      <Placemark>
        <name>Loteamento Nova Esperança</name>
        <description>
UBS: José de Carvalho Peixoto
Microárea: 4
Endereço: Loteamento Nova Esperança, Mangabeira, Nossa Senhora do Socorro - SE
Método: google_api
</description>
        <styleUrl>#style_ma_4</styleUrl>
        <Point>
          <coordinates>-37.0889884,-10.901203,0</coordinates>
        </Point>
      </Placemark>
      <Placemark>
        <name>Rua Tulipa</name>
        <description>
UBS: José de Carvalho Peixoto
Microárea: 4
Endereço: Rua Tulipa, Mangabeira, Nossa Senhora do Socorro - SE
Método: google_api
</description>
        <styleUrl>#style_ma_4</styleUrl>
        <Point>
          <coordinates>-37.0750498,-10.8589222,0</coordinates>
        </Point>
      </Placemark>
      <Placemark>
        <name>Rua Roseira</name>
        <description>
UBS: José de Carvalho Peixoto
Microárea: 4
Endereço: Rua Roseira, Mangabeira, Nossa Senhora do Socorro - SE
Método: google_api
</description>
        <styleUrl>#style_ma_4</styleUrl>
        <Point>
          <coordinates>-37.073967,-10.8584461,0</coordinates>
        </Point>
      </Placemark>
      <Placemark>
        <name>Travessa Roseira</name>
        <description>
UBS: José de Carvalho Peixoto
Microárea: 4
Endereço: Travessa Roseira, Mangabeira, Nossa Senhora do Socorro - SE
Método: google_api
</description>
        <styleUrl>#style_ma_4</styleUrl>
        <Point>
          <coordinates>-37.073967,-10.8584461,0</coordinates>
        </Point>
      </Placemark>
      <Placemark>
        <name>Hortênsia</name>
        <description>
UBS: José de Carvalho Peixoto
Microárea: 4
Endereço: Hortênsia, Mangabeira, Nossa Senhora do Socorro - SE
Método: google_api
</description>
        <styleUrl>#style_ma_4</styleUrl>
        <Point>
          <coordinates>-37.0736992,-10.8579886,0</coordinates>
        </Point>
      </Placemark>
      <Placemark>
        <name>Travessa Hortênsia</name>
        <description>
UBS: José de Carvalho Peixoto
Microárea: 4
Endereço: Travessa Hortênsia, Mangabeira, Nossa Senhora do Socorro - SE
Método: google_api
</description>
        <styleUrl>#style_ma_4</styleUrl>
        <Point>
          <coordinates>-37.0736992,-10.8579886,0</coordinates>
        </Point>
      </Placemark>
      <Placemark>
        <name>Lírio da Paz</name>
        <description>
UBS: José de Carvalho Peixoto
Microárea: 4
Endereço: Lírio da Paz, Mangabeira, Nossa Senhora do Socorro - SE
Método: google_api
</description>
        <styleUrl>#style_ma_4</styleUrl>
        <Point>
          <coordinates>-37.0738297,-10.8575328,0</coordinates>
        </Point>
      </Placemark>
      <Placemark>
        <name>Travessa Lírio da Paz</name>
        <description>
UBS: José de Carvalho Peixoto
Microárea: 4
Endereço: Travessa Lírio da Paz, Mangabeira, Nossa Senhora do Socorro - SE
Método: google_api
</description>
        <styleUrl>#style_ma_4</styleUrl>
        <Point>
          <coordinates>-37.0730933,-10.8575314,0</coordinates>
        </Point>
      </Placemark>
      <Placemark>
        <name>Orquídea</name>
        <description>
UBS: José de Carvalho Peixoto
Microárea: 4
Endereço: Orquídea, Mangabeira, Nossa Senhora do Socorro - SE
Método: google_api
</description>
        <styleUrl>#style_ma_4</styleUrl>
        <Point>
          <coordinates>-37.0745115,-10.8570627,0</coordinates>
        </Point>
      </Placemark>
      <Placemark>
        <name>Pôr do Sol 1</name>
        <description>
UBS: José de Carvalho Peixoto
Microárea: 4
Endereço: Pôr do Sol 1, Mangabeira, Nossa Senhora do Socorro - SE
Método: google_api
</description>
        <styleUrl>#style_ma_4</styleUrl>
        <Point>
          <coordinates>-37.07368719999999,-10.8584485,0</coordinates>
        </Point>
      </Placemark>
    </Folder>
    <Folder>
      <name>Microárea 5</name>
      <Placemark>
        <name>Rua Major Aureliano</name>
        <description>
UBS: José de Carvalho Peixoto
Microárea: 5
Endereço: Rua Major Aureliano, Mangabeira, Nossa Senhora do Socorro - SE
Método: google_api
</description>
        <styleUrl>#style_ma_5</styleUrl>
        <Point>
          <coordinates>-37.0801069,-10.8949842,0</coordinates>
        </Point>
      </Placemark>
      <Placemark>
        <name>Alecrim</name>
        <description>
UBS: José de Carvalho Peixoto
Microárea: 5
Endereço: Alecrim, Mangabeira, Nossa Senhora do Socorro - SE
Método: google_api
</description>
        <styleUrl>#style_ma_5</styleUrl>
        <Point>
          <coordinates>-37.0759053,-10.8598438,0</coordinates>
        </Point>
      </Placemark>
      <Placemark>
        <name>Pôr do Sol 1</name>
        <description>
UBS: José de Carvalho Peixoto
Microárea: 5
Endereço: Pôr do Sol 1, Mangabeira, Nossa Senhora do Socorro - SE
Método: google_api
</description>
        <styleUrl>#style_ma_5</styleUrl>
        <Point>
          <coordinates>-37.07368719999999,-10.8584485,0</coordinates>
        </Point>
      </Placemark>
      <Placemark>
        <name>Pôr do Sol 02</name>
        <description>
UBS: José de Carvalho Peixoto
Microárea: 5
Endereço: Pôr do Sol 02, Mangabeira, Nossa Senhora do Socorro - SE
Método: google_api
</description>
        <styleUrl>#style_ma_5</styleUrl>
        <Point>
          <coordinates>-37.07368719999999,-10.8584485,0</coordinates>
        </Point>
      </Placemark>
      <Placemark>
        <name>Invasão Mangabeira</name>
        <description>
UBS: José de Carvalho Peixoto
Microárea: 5
Endereço: Invasão Mangabeira, Mangabeira, Nossa Senhora do Socorro - SE
Método: google_api
</description>
        <styleUrl>#style_ma_5</styleUrl>
        <Point>
          <coordinates>-37.07368719999999,-10.8584485,0</coordinates>
        </Point>
      </Placemark>
      <Placemark>
        <name>Rua Divina Pastora</name>
        <description>
UBS: José de Carvalho Peixoto
Microárea: 5
Endereço: Rua Divina Pastora, Mangabeira, Nossa Senhora do Socorro - SE
Método: google_api
</description>
        <styleUrl>#style_ma_5</styleUrl>
        <Point>
          <coordinates>-37.0823683,-10.8547138,0</coordinates>
        </Point>
      </Placemark>
    </Folder>
    <Folder>
      <name>Microárea 01 e 02</name>
      <Placemark>
        <name>Travessa Nova Alvorada</name>
        <description>
UBS: José de Carvalho Peixoto
Microárea: 01 e 02
Endereço: Travessa Nova Alvorada, Mangabeira, Nossa Senhora do Socorro - SE
Método: google_api
</description>
        <styleUrl>#style_ma_01_e_02</styleUrl>
        <Point>
          <coordinates>-37.0779979,-10.8536161,0</coordinates>
        </Point>
      </Placemark>
      <Placemark>
        <name>Av. Areal Mangabeira</name>
        <description>
UBS: José de Carvalho Peixoto
Microárea: 01 e 02
Endereço: Av. Areal Mangabeira, Mangabeira, Nossa Senhora do Socorro - SE
Método: google_api
</description>
        <styleUrl>#style_ma_01_e_02</styleUrl>
        <Point>
          <coordinates>-37.0768845,-10.8564458,0</coordinates>
        </Point>
      </Placemark>
      <Placemark>
        <name>Travessa Areal Mangabeira</name>
        <description>
UBS: José de Carvalho Peixoto
Microárea: 01 e 02
Endereço: Travessa Areal Mangabeira, Mangabeira, Nossa Senhora do Socorro - SE
Método: google_api
</description>
        <styleUrl>#style_ma_01_e_02</styleUrl>
        <Point>
          <coordinates>-37.0768845,-10.8564458,0</coordinates>
        </Point>
      </Placemark>
    </Folder>
  </Document>
</kml>