ubs_referencia,localizacao_ubs,link_map_ubs,micro_area,endereco_completo,latitude,longitude,fonte,confianca
Muciano Guajara,"Av. Principal, 355 - Guajará, Nossa Sra. do Socorro - SE, 49160-000",https://maps.app.goo.gl/skDfKoLb2iqzoAuMA,32,"Rua 2 de Fevereiro, Guajará, Nossa Senhora do Socorro - SE",-10.8935653,-37.1567935,nominatim,alta
Muciano Guajara,"Av. Principal, 355 - Guajará, Nossa Sra. do Socorro - SE, 49160-000",https://maps.app.goo.gl/skDfKoLb2iqzoAuMA,32,"Rua 3 de Fevereiro, Guajará, Nossa Senhora do Socorro - SE",-10.8929786,-37.1569307,nominatim,alta
Muciano Guajara,"Av. Principal, 355 - Guajará, Nossa Sra. do Socorro - SE, 49160-000",https://maps.app.goo.gl/skDfKoLb2iqzoAuMA,32,"Rua 11 de Fevereiro, Guajará, Nossa Senhora do Socorro - SE",-10.8885037,-37.1566402,nominatim,alta
Muciano Guajara,"Av. Principal, 355 - Guajará, Nossa Sra. do Socorro - SE, 49160-000",https://maps.app.goo.gl/skDfKoLb2iqzoAuMA,32,"Rua 13 de Fevereiro, Guajará, Nossa Senhora do Socorro - SE",-10.8915044,-37.1551109,nominatim,alta
Muciano Guajara,"Av. Principal, 355 - Guajará, Nossa Sra. do Socorro - SE, 49160-000",https://maps.app.goo.gl/skDfKoLb2iqzoAuMA,32,"Rua 10 de Fevereiro, Guajará, Nossa Senhora do Socorro - SE",-10.8891285,-37.1562122,nominatim,alta
Muciano Guajara,"Av. Principal, 355 - Guajará, Nossa Sra. do Socorro - SE, 49160-000",https://maps.app.goo.gl/skDfKoLb2iqzoAuMA,32,"Rua Nossa Senhora de Fátima, Guajará, Nossa Senhora do Socorro - SE",-10.8864123,-37.1466637,nominatim,alta
Muciano Guajara,"Av. Principal, 355 - Guajará, Nossa Sra. do Socorro - SE, 49160-000",https://maps.app.goo.gl/skDfKoLb2iqzoAuMA,32,"Rua das Orquídeas, Guajará, Nossa Senhora do Socorro - SE",-10.8929259,-37.1528867,nominatim,alta
Muciano Guajara,"Av. Principal, 355 - Guajará, Nossa Sra. do Socorro - SE, 49160-000",https://maps.app.goo.gl/skDfKoLb2iqzoAuMA,32,"Rua A1, Guajará, Nossa Senhora do Socorro - SE",-10.8937765,-37.1485438,nominatim,alta
Muciano Guajara,"Av. Principal, 355 - Guajará, Nossa Sra. do Socorro - SE, 49160-000",https://maps.app.goo.gl/skDfKoLb2iqzoAuMA,32,"Rua BC, Guajará, Nossa Senhora do Socorro - SE",-10.9023022,-37.1430783,nominatim,alta
Muciano Guajara,"Av. Principal, 355 - Guajará, Nossa Sra. do Socorro - SE, 49160-000",https://maps.app.goo.gl/skDfKoLb2iqzoAuMA,32,"Rua D, Guajará, Nossa Senhora do Socorro - SE",-10.8925425,-37.1440291,nominatim,alta
Muciano Guajara,"Av. Principal, 355 - Guajará, Nossa Sra. do Socorro - SE, 49160-000",https://maps.app.goo.gl/skDfKoLb2iqzoAuMA,32,"Rua E, Guajará, Nossa Senhora do Socorro - SE",-10.8884847,-37.1603487,nominatim,alta
Muciano Guajara,"Av. Principal, 355 - Guajará, Nossa Sra. do Socorro - SE, 49160-000",https://maps.app.goo.gl/skDfKoLb2iqzoAuMA,32,"Rua M, Guajará, Nossa Senhora do Socorro - SE",-10.9001411,-37.1608161,nominatim,alta
Muciano Guajara,"Av. Principal, 355 - Guajará, Nossa Sra. do Socorro - SE, 49160-000",https://maps.app.goo.gl/skDfKoLb2iqzoAuMA,32,"Rua P, Guajará, Nossa Senhora do Socorro - SE",-10.8984355,-37.1609873,nominatim,alta
Muciano Guajara,"Av. Principal, 355 - Guajará, Nossa Sra. do Socorro - SE, 49160-000",https://maps.app.goo.gl/skDfKoLb2iqzoAuMA,32,"Vila Ney, Guajará, Nossa Senhora do Socorro - SE",-10.8872284,-37.1592662,nominatim,alta
Muciano Guajara,"Av. Principal, 355 - Guajará, Nossa Sra. do Socorro - SE, 49160-000",https://maps.app.goo.gl/skDfKoLb2iqzoAuMA,32,"Avenida Perimetral, Guajará, Nossa Senhora do Socorro - SE",-10.8904332,-37.1578482,nominatim,alta
Muciano Guajara,"Av. Principal, 355 - Guajará, Nossa Sra. do Socorro - SE, 49160-000",https://maps.app.goo.gl/skDfKoLb2iqzoAuMA,32,"Travessa C, Guajará, Nossa Senhora do Socorro - SE",-10.893097,-37.1438222,nominatim,alta
Muciano Guajara,"Av. Principal, 355 - Guajará, Nossa Sra. do Socorro - SE, 49160-000",https://maps.app.goo.gl/skDfKoLb2iqzoAuMA,32,"Travessa D, Guajará, Nossa Senhora do Socorro - SE",-10.8939135,-37.144328,nominatim,alta
Muciano Guajara,"Av. Principal, 355 - Guajará, Nossa Sra. do Socorro - SE, 49160-000",https://maps.app.goo.gl/skDfKoLb2iqzoAuMA,32,"Travessa E, Guajará, Nossa Senhora do Socorro - SE",-10.8945068,-37.1466179,nominatim,alta
Muciano Guajara,"Av. Principal, 355 - Guajará, Nossa Sra. do Socorro - SE, 49160-000",https://maps.app.goo.gl/skDfKoLb2iqzoAuMA,32,"Rua A, Guajará, Nossa Senhora do Socorro - SE",-10.8987551,-37.1607074,nominatim,alta
Muciano Guajara,"Av. Principal, 355 - Guajará, Nossa Sra. do Socorro - SE, 49160-000",https://maps.app.goo.gl/skDfKoLb2iqzoAuMA,32,"Rua B, Guajará, Nossa Senhora do Socorro - SE",-10.8998799,-37.1436621,nominatim,alta
Muciano Guajara,"Av. Principal, 355 - Guajará, Nossa Sra. do Socorro - SE, 49160-000",https://maps.app.goo.gl/skDfKoLb2iqzoAuMA,32,"Avenida 2 de Maio, Guajará, Nossa Senhora do Socorro - SE",-10.8956623,-37.1551228,nominatim,alta
Muciano Guajara,"Av. Principal, 355 - Guajará, Nossa Sra. do Socorro - SE, 49160-000",https://maps.app.goo.gl/skDfKoLb2iqzoAuMA,32,"Rua Dois de Maio, Guajará, Nossa Senhora do Socorro - SE",-10.8964709,-37.1530541,nominatim,alta
Muciano Guajara,"Av. Principal, 355 - Guajará, Nossa Sra. do Socorro - SE, 49160-000",https://maps.app.goo.gl/skDfKoLb2iqzoAuMA,32,"Rua 4 de Janeiro, Guajará, Nossa Senhora do Socorro - SE",-10.8939688,-37.1520553,nominatim,alta
Muciano Guajara,"Av. Principal, 355 - Guajará, Nossa Sra. do Socorro - SE, 49160-000",https://maps.app.goo.gl/skDfKoLb2iqzoAuMA,32,"Rua 5 de Janeiro, Guajará, Nossa Senhora do Socorro - SE",-10.895413,-37.1526527,nominatim,alta
Muciano Guajara,"Av. Principal, 355 - Guajará, Nossa Sra. do Socorro - SE, 49160-000",https://maps.app.goo.gl/skDfKoLb2iqzoAuMA,32,"Rua 6 de Janeiro, Guajará, Nossa Senhora do Socorro - SE",-10.8944248,-37.153703,nominatim,alta
Muciano Guajara,"Av. Principal, 355 - Guajará, Nossa Sra. do Socorro - SE, 49160-000",https://maps.app.goo.gl/skDfKoLb2iqzoAuMA,32,"Rua 7 de Janeiro, Guajará, Nossa Senhora do Socorro - SE",-10.8942034,-37.154249,nominatim,alta
Muciano Guajara,"Av. Principal, 355 - Guajará, Nossa Sra. do Socorro - SE, 49160-000",https://maps.app.goo.gl/skDfKoLb2iqzoAuMA,32,"Rua 9 de Janeiro, Guajará, Nossa Senhora do Socorro - SE",-10.8950008,-37.1519974,nominatim,alta
Muciano Guajara,"Av. Principal, 355 - Guajará, Nossa Sra. do Socorro - SE, 49160-000",https://maps.app.goo.gl/skDfKoLb2iqzoAuMA,32,"Avenida Rosa de Maio, Guajará, Nossa Senhora do Socorro - SE",-10.8902498,-37.1515834,nominatim,alta
Muciano Guajara,"Av. Principal, 355 - Guajará, Nossa Sra. do Socorro - SE, 49160-000",https://maps.app.goo.gl/skDfKoLb2iqzoAuMA,9,"Rua 9, Guajará, Nossa Senhora do Socorro - SE",-10.9015528,-37.154214,nominatim,alta
Muciano Guajara,"Av. Principal, 355 - Guajará, Nossa Sra. do Socorro - SE, 49160-000",https://maps.app.goo.gl/skDfKoLb2iqzoAuMA,9,"Rua 11, Guajará, Nossa Senhora do Socorro - SE",-10.8989357,-37.1556219,nominatim,alta
Muciano Guajara,"Av. Principal, 355 - Guajará, Nossa Sra. do Socorro - SE, 49160-000",https://maps.app.goo.gl/skDfKoLb2iqzoAuMA,9,"Rua 10, Guajará, Nossa Senhora do Socorro - SE",-10.9017073,-37.1565183,nominatim,alta
Muciano Guajara,"Av. Principal, 355 - Guajará, Nossa Sra. do Socorro - SE, 49160-000",https://maps.app.goo.gl/skDfKoLb2iqzoAuMA,9,"Rua 8, Guajará, Nossa Senhora do Socorro - SE",-10.9007182,-37.1540732,nominatim,alta
Muciano Guajara,"Av. Principal, 355 - Guajará, Nossa Sra. do Socorro - SE, 49160-000",https://maps.app.goo.gl/skDfKoLb2iqzoAuMA,9,"Rua 4, Guajará, Nossa Senhora do Socorro - SE",-10.897372,-37.154813,nominatim,alta
Muciano Guajara,"Av. Principal, 355 - Guajará, Nossa Sra. do Socorro - SE, 49160-000",https://maps.app.goo.gl/skDfKoLb2iqzoAuMA,9,"Avenida Principal, Guajará, Nossa Senhora do Socorro - SE",-10.8860144,-37.1459552,nominatim,alta
Muciano Guajara,"Av. Principal, 355 - Guajará, Nossa Sra. do Socorro - SE, 49160-000",https://maps.app.goo.gl/skDfKoLb2iqzoAuMA,9,"Rua Padre Cícero, Guajará, Nossa Senhora do Socorro - SE",-10.8983621,-37.1568275,nominatim,alta
Muciano Guajara,"Av. Principal, 355 - Guajará, Nossa Sra. do Socorro - SE, 49160-000",https://maps.app.goo.gl/skDfKoLb2iqzoAuMA,9,"Rua São Luiz, Guajará, Nossa Senhora do Socorro - SE",-10.8979901,-37.1564669,nominatim,alta
Muciano Guajara,"Av. Principal, 355 - Guajará, Nossa Sra. do Socorro - SE, 49160-000",https://maps.app.goo.gl/skDfKoLb2iqzoAuMA,9,"Rua B, Guajará, Nossa Senhora do Socorro - SE",-10.8998799,-37.1436621,nominatim,alta
Muciano Guajara,"Av. Principal, 355 - Guajará, Nossa Sra. do Socorro - SE, 49160-000",https://maps.app.goo.gl/skDfKoLb2iqzoAuMA,9,"Rua Treze, Guajará, Nossa Senhora do Socorro - SE",-10.900148,-37.1570607,nominatim,alta
Muciano Guajara,"Av. Principal, 355 - Guajará, Nossa Sra. do Socorro - SE, 49160-000",https://maps.app.goo.gl/skDfKoLb2iqzoAuMA,9,"Rua E, Guajará, Nossa Senhora do Socorro - SE",-10.8884847,-37.1603487,nominatim,alta
Muciano Guajara,"Av. Principal, 355 - Guajará, Nossa Sra. do Socorro - SE, 49160-000",https://maps.app.goo.gl/skDfKoLb2iqzoAuMA,9,"Rua Elias Almeida, Guajará, Nossa Senhora do Socorro - SE",-10.9044806,-37.1503577,nominatim,alta
Muciano Guajara,"Av. Principal, 355 - Guajará, Nossa Sra. do Socorro - SE, 49160-000",https://maps.app.goo.gl/skDfKoLb2iqzoAuMA,9,"Rua Humberto Silva, Guajará, Nossa Senhora do Socorro - SE",-10.9020674,-37.1496593,nominatim,alta
Muciano Guajara,"Av. Principal, 355 - Guajará, Nossa Sra. do Socorro - SE, 49160-000",https://maps.app.goo.gl/skDfKoLb2iqzoAuMA,9,"Rua F, Guajará, Nossa Senhora do Socorro - SE",-10.8975853,-37.1607981,nominatim,alta
Muciano Guajara,"Av. Principal, 355 - Guajará, Nossa Sra. do Socorro - SE, 49160-000",https://maps.app.goo.gl/skDfKoLb2iqzoAuMA,9,"Rua H, Guajará, Nossa Senhora do Socorro - SE",-10.8964999,-37.1607673,nominatim,alta
Muciano Guajara,"Av. Principal, 355 - Guajará, Nossa Sra. do Socorro - SE, 49160-000",https://maps.app.goo.gl/skDfKoLb2iqzoAuMA,9,"Rua G, Guajará, Nossa Senhora do Socorro - SE",-10.8970504,-37.1608473,nominatim,alta
Muciano Guajara,"Av. Principal, 355 - Guajará, Nossa Sra. do Socorro - SE, 49160-000",https://maps.app.goo.gl/skDfKoLb2iqzoAuMA,9,"Rua Santa Barbara, Guajará, Nossa Senhora do Socorro - SE",-10.8988931,-37.1449513,nominatim,alta
Muciano Guajara,"Av. Principal, 355 - Guajará, Nossa Sra. do Socorro - SE, 49160-000",https://maps.app.goo.gl/skDfKoLb2iqzoAuMA,9,"Travessa I, Guajará, Nossa Senhora do Socorro - SE",-10.9026084,-37.1494478,nominatim,alta
Muciano Guajara,"Av. Principal, 355 - Guajará, Nossa Sra. do Socorro - SE, 49160-000",https://maps.app.goo.gl/skDfKoLb2iqzoAuMA,9,"Travessa E, Guajará, Nossa Senhora do Socorro - SE",-10.8945068,-37.1466179,nominatim,alta
Muciano Guajara,"Av. Principal, 355 - Guajará, Nossa Sra. do Socorro - SE, 49160-000",https://maps.app.goo.gl/skDfKoLb2iqzoAuMA,9,"Rua K, Guajará, Nossa Senhora do Socorro - SE",-10.8973081,-37.1493293,nominatim,alta
Muciano Guajara,"Av. Principal, 355 - Guajará, Nossa Sra. do Socorro - SE, 49160-000",https://maps.app.goo.gl/skDfKoLb2iqzoAuMA,9,"Rua C, Guajará, Nossa Senhora do Socorro - SE",-10.899829,-37.1609723,nominatim,alta
Muciano Guajara,"Av. Principal, 355 - Guajará, Nossa Sra. do Socorro - SE, 49160-000",https://maps.app.goo.gl/skDfKoLb2iqzoAuMA,9,"Rua Balbino José, Guajará, Nossa Senhora do Socorro - SE",-10.8974435,-37.1500706,nominatim,alta
